# index, name, nodeLabel, nodeLat, nodeLong, _pos
0,abbeyroad,abbeyroad,51.531951985733,0.0037377856069111,"array([1.67398194, 6.84895367])"
1,westham,westham,51.52852551818,0.0053318072586749,"array([1.69016166, 6.8574384 ])"
2,actoncentral,actoncentral,51.508757812012,-0.26341579231596,"array([1.92309925, 7.34721208])"
3,willesdenjunction,willesdenjunction,51.532233992929,-0.2438947288224,"array([1.89444118, 7.329156  ])"
4,actontown,actontown,51.503071476856,-0.2802882961706,"array([2.03649598, 7.40223207])"
5,chiswickpark,chiswickpark,51.494370746332,-0.26772251965492,"array([2.02276546, 7.38930105])"
6,turnhamgreen,turnhamgreen,51.495181971972,-0.25451016527384,"array([2.00971376, 7.37258541])"
7,aldgate,aldgate,51.514342387502,-0.075612503707184,"array([1.76081381, 7.01147356])"
8,liverpoolstreet,liverpoolstreet,51.517598273919,-0.082235212309326,"array([1.74786392, 7.00898463])"
9,aldgateeast,aldgateeast,51.515081631079,-0.072987053548915,"array([1.74974394, 6.99030793])"
10,whitechapel,whitechapel,51.519587792346,-0.059406074587337,"array([1.74185175, 6.9727203 ])"
11,allsaints,allsaints,51.510476925464,-0.012610477634,"array([1.76424522, 6.88623648])"
12,poplar,poplar,51.507588072081,-0.017261086484836,"array([1.78300985, 6.88727909])"
13,alperton,alperton,51.541209310632,-0.2995013414547,"array([2.00041126, 7.49690689])"
14,parkroyal,parkroyal,51.526834054645,-0.28491450496891,"array([2.01781063, 7.47580556])"
15,amersham,amersham,51.674129392062,-0.60649933056891,"array([1.80245435, 7.75387999])"
16,chalfont&latimer,chalfont&latimer,51.667907547721,-0.56105332039672,"array([1.79498966, 7.73687862])"
17,anerley,anerley,51.412516725364,-0.065122723194277,"array([2.06278511, 6.81608259])"
18,norwoodjunction,norwoodjunction,51.396954330829,-0.075195484483074,"array([2.07967569, 6.80429431])"
19,angel,angel,51.532968028132,-0.10556703413728,"array([1.71031051, 7.10784749])"
20,oldstreet,oldstreet,51.525581481862,-0.087608545343845,"array([1.72452051, 7.07454158])"
21,archway,archway,51.565490550156,-0.13510715160572,"array([1.60074166, 7.30837412])"
22,tufnellpark,tufnellpark,51.556440814333,-0.13772775294192,"array([1.62539402, 7.28402949])"
23,arnosgrove,arnosgrove,51.616230157665,-0.13425577761924,"array([1.46175887, 7.13547347])"
24,southgate,southgate,51.63237586338,-0.12775560097809,"array([1.43796522, 7.13643875])"
25,arsenal,arsenal,51.558541388156,-0.10548551071377,"array([1.63621377, 7.12263423])"
26,finsburypark,finsburypark,51.564635458062,-0.10586706135916,"array([1.61792974, 7.11428565])"
27,bakerstreet,bakerstreet,51.523129639184,-0.15688978273689,"array([1.78344695, 7.24452102])"
28,bondstreet,bondstreet,51.513797542631,-0.14959920109132,"array([1.80980106, 7.20179694])"
29,edgwareroad(circleline),edgwareroad(circleline),51.51999806318,-0.1676538436008,"array([1.79909108, 7.2734956 ])"
30,greatportlandstreet,greatportlandstreet,51.52378881305,-0.14394701338886,"array([1.75526378, 7.21188702])"
31,regentspark,regentspark,51.52381069054,-0.14532999904559,"array([1.78836324, 7.21130826])"
32,balham,balham,51.443182580239,-0.15267077683302,"array([2.04707487, 7.02945881])"
33,tootingbec,tootingbec,51.435838083172,-0.15968610811001,"array([2.07214284, 7.02100729])"
34,bank,bank,51.513347072699,-0.088985715325045,"array([1.78451609, 7.02708315])"
35,londonbridge,londonbridge,51.504674357597,-0.085991192281661,"array([1.82152626, 7.00606471])"
36,shadwell,shadwell,51.51130016173,-0.056904799137598,"array([1.77873901, 6.97789343])"
37,barbican,barbican,51.520215295016,-0.097707167852645,"array([1.73745499, 7.08029101])"
38,farringdon,farringdon,51.520195700647,-0.10482865117184,"array([1.72332575, 7.11282107])"
39,moorgate,moorgate,51.518437149414,-0.08900327764505,"array([1.74855447, 7.04657219])"
40,barking,barking,51.539521102884,0.0808460268962,"array([1.53912104, 6.90085405])"
41,upney,upney,51.538405634701,0.10154616057314,"array([1.5095414 , 6.89095996])"
42,barkingside,barkingside,51.585850602534,0.088491071171579,"array([1.50428975, 6.74078499])"
43,fairlop,fairlop,51.59610953153,0.090607714208087,"array([1.49400383, 6.72271651])"
44,baronscourt,baronscourt,51.490228707652,-0.21341574380466,"array([1.98097198, 7.29251758])"
45,earlscourt,earlscourt,51.491356695274,-0.19429940765557,"array([1.96036456, 7.25717399])"
46,westkensington,westkensington,51.490109387233,-0.20618929345907,"array([1.97795709, 7.27249917])"
47,bayswater,bayswater,51.512111310915,-0.18788716574986,"array([1.86304929, 7.27550082])"
48,nottinghillgate,nottinghillgate,51.509375359878,-0.1959072111467,"array([1.89856148, 7.26626272])"
49,paddington,paddington,51.515393806532,-0.17572234283505,"array([1.82422939, 7.28498437])"
50,becktonpark,becktonpark,51.508900786453,0.054836346093653,"array([1.72121216, 6.68645966])"
51,cyprus,cyprus,51.508526572883,0.063855162939039,"array([1.72175876, 6.66325622])"
52,becontree,becontree,51.539585393148,0.12689470862039,"array([1.48192412, 6.8824054 ])"
53,dagenhamheathway,dagenhamheathway,51.541211772284,0.14769413756505,"array([1.45592161, 6.87457616])"
54,belsizepark,belsizepark,51.550190897304,-0.1639600723677,"array([1.60732262, 7.24785669])"
55,chalkfarm,chalkfarm,51.544149104848,-0.15371865256093,"array([1.64075679, 7.23823618])"
56,bermondsey,bermondsey,51.497960787629,-0.064315686265478,"array([1.83728178, 6.96613237])"
57,canadawater,canadawater,51.498168417556,-0.05079271714472,"array([1.84821437, 6.92572579])"
58,bethnalgreen,bethnalgreen,51.527191747482,-0.055377698622437,"array([1.72140826, 6.96849985])"
59,mileend,mileend,51.525310973905,-0.032651671918221,"array([1.69885783, 6.92815625])"
60,blackfriars,blackfriars,51.511586939902,-0.10298097717171,"array([1.80474922, 7.05878784])"
61,mansionhouse,mansionhouse,51.512091761163,-0.094183249527509,"array([1.80334039, 7.03808765])"
62,blackhorseroad,blackhorseroad,51.585776631411,-0.039611280026926,"array([1.54832096, 7.08074037])"
63,walthamstowcentral,walthamstowcentral,51.583018115291,-0.019926114372123,"array([1.52949264, 7.07840683])"
64,walthamstowqueensroad,walthamstowqueensroad,51.581546193899,-0.0238295131434,"array([1.53648762, 7.04940301])"
65,blackwall,blackwall,51.507831540895,-0.0072207589795153,"array([1.76946552, 6.8648272 ])"
66,eastindia,eastindia,51.508684006054,-0.0023559243798497,"array([1.75463521, 6.84623881])"
67,greenpark,greenpark,51.506760501463,-0.14246316907526,"array([1.82865891, 7.16102647])"
68,oxfordcircus,oxfordcircus,51.515223419245,-0.14082176208955,"array([1.79446662, 7.17818558])"
69,borough,borough,51.501048880447,-0.094182918403389,"array([1.84387452, 7.01694092])"
70,elephant&castle,elephant&castle,51.495849394281,-0.10072431173602,"array([1.85488065, 7.03837988])"
71,bostonmanor,bostonmanor,51.495765574642,-0.32473278589022,"array([2.11775723, 7.46336718])"
72,northfields,northfields,51.500491708619,-0.31505041439224,"array([2.09322282, 7.44455857])"
73,boundsgreen,boundsgreen,51.607031935983,-0.12416262739225,"array([1.4877061 , 7.13424093])"
74,bowchurch,bowchurch,51.527615205643,-0.020485486059214,"array([1.70876183, 6.88651728])"
75,devonsroad,devonsroad,51.522258469272,-0.017993342742124,"array([1.72763508, 6.88211801])"
76,bowroad,bowroad,51.527041809222,-0.024345177705763,"array([1.69613624, 6.90513481])"
77,bromley-by-bow,bromley-by-bow,51.52484020109,-0.01166796209473,"array([1.69399254, 6.87810735])"
78,brentcross,brentcross,51.576599240756,-0.21332141198154,"array([1.52117757, 7.27108341])"
79,goldersgreen,goldersgreen,51.572215556655,-0.19482013198437,"array([1.5478676 , 7.26393365])"
80,brixton,brixton,51.462736815606,-0.11453770490964,"array([1.94056381, 7.0787246 ])"
81,stockwell,stockwell,51.472159270341,-0.12283190859196,"array([1.92480265, 7.07381789])"
82,brockley,brockley,51.464749666688,-0.03773385721419,"array([1.95053645, 6.89418549])"
83,honoroakpark,honoroakpark,51.450648245652,-0.044138732242293,"array([1.97535049, 6.87595968])"
84,newcrossgate,newcrossgate,51.475264932486,-0.039514655295107,"array([1.92416059, 6.9134259 ])"
85,brondesbury,brondesbury,51.545262386773,-0.20282406710345,"array([1.78058725, 7.32134267])"
86,westhampstead,westhampstead,51.547474356007,-0.19111216622603,"array([1.744585  , 7.30394141])"
87,brondesburypark,brondesburypark,51.540325391085,-0.21045952961905,"array([1.81795907, 7.33332632])"
88,buckhursthill,buckhursthill,51.626576654655,0.046726985755,"array([1.57448939, 6.68396265])"
89,loughton,loughton,51.641570470369,0.055293528321119,"array([1.57060836, 6.65861422])"
90,burntoak,burntoak,51.602551943784,-0.26431627556888,"array([1.45356195, 7.28958994])"
91,colindale,colindale,51.595230546294,-0.25027310932225,"array([1.47385432, 7.28395079])"
92,bushey,bushey,51.645544206307,-0.38470709118099,"array([1.75815616, 7.5672121 ])"
93,watfordhighstreet,watfordhighstreet,51.652653752213,-0.39168227690127,"array([1.74456486, 7.58343233])"
94,caledonianroad,caledonianroad,51.547885455043,-0.11834644235876,"array([1.68188135, 7.1394643 ])"
95,hollowayroad,hollowayroad,51.55281611672,-0.11292127587712,"array([1.65892764, 7.13166617])"
96,caledonianroad&barnsbury,caledonianroad&barnsbury,51.543284589046,-0.11519043865212,"array([1.64863206, 7.14415574])"
97,highbury&islington,highbury&islington,51.546495518926,-0.10406772078143,"array([1.66077127, 7.11602758])"
98,camdenroad,camdenroad,51.541851250779,-0.13918869492503,"array([1.64349838, 7.16961237])"
99,camdentown,camdentown,51.539969369251,-0.14243796405007,"array([1.67736757, 7.22658885])"
100,euston,euston,51.528664346375,-0.13328205840994,"array([1.71886788, 7.19867523])"
101,morningtoncrescent,morningtoncrescent,51.534362233874,-0.1387299346061,"array([1.69730998, 7.21290148])"
102,canarywharf,canarywharf,51.503578406232,-0.019452434600173,"array([1.82143012, 6.88159927])"
103,surreyquays,surreyquays,51.493266862158,-0.047515585346921,"array([1.89451362, 6.9338724 ])"
104,heronquays,heronquays,51.503386571015,-0.021939126563571,"array([1.84139973, 6.85153318])"
105,northgreenwich,northgreenwich,51.500255151591,0.0036006636371896,"array([1.78132324, 6.85484111])"
106,canningtown,canningtown,51.513870285695,0.0083200415480822,"array([1.73523424, 6.83640148])"
107,royalvictoria,royalvictoria,51.509055232332,0.017979819853408,"array([1.72808503, 6.80144342])"
108,westsilvertown,westsilvertown,51.502884431544,0.022260451989289,"array([1.75022228, 6.80931528])"
109,cannonstreet,cannonstreet,51.511362099463,-0.090236118885105,"array([1.80053258, 7.01709698])"
110,monument,monument,51.510630425959,-0.086173905918798,"array([1.78767702, 7.00227365])"
111,canonbury,canonbury,51.548188396024,-0.092559776199295,"array([1.65543587, 7.07105921])"
112,dalstonjunction,dalstonjunction,51.546093724339,-0.07497978585502,"array([1.66562775, 7.04859268])"
113,dalstonkingsland,dalstonkingsland,51.548667827094,-0.076212502172009,"array([1.646843  , 7.03298287])"
114,canonspark,canonspark,51.607650605221,-0.29437715826231,"array([1.751898  , 7.43591009])"
115,queensbury,queensbury,51.593883010111,-0.28631716346916,"array([1.76127593, 7.41529473])"
116,carpenderspark,carpenderspark,51.628186764519,-0.38581487914664,"array([1.77308063, 7.54925657])"
117,chorleywood,chorleywood,51.654265989674,-0.51831947385278,"array([1.80100366, 7.71453735])"
118,chancerylane,chancerylane,51.518494029809,-0.11194761724718,"array([1.76740636, 7.09246087])"
119,stpauls,stpauls,51.51483530739,-0.097556591574387,"array([1.77476353, 7.05965386])"
120,charingcross,charingcross,51.508358644804,-0.12478853109718,"array([1.81044618, 7.12559322])"
121,embankment,embankment,51.507312509276,-0.12235292981979,"array([1.81990593, 7.09581711])"
122,chesham,chesham,51.705380095434,-0.61141518839627,"array([1.78006002, 7.74779641])"
123,chigwell,chigwell,51.617857862487,0.076193656688014,"array([1.53213567, 6.69395412])"
124,rodingvalley,rodingvalley,51.616956440142,0.044040648415103,"array([1.55343225, 6.70208835])"
125,rickmansworth,rickmansworth,51.640323072212,-0.47367013575456,"array([1.80841695, 7.6914405 ])"
126,claphamcommon,claphamcommon,51.4618036863,-0.13830051012379,"array([1.99083768, 7.04869801])"
127,claphamsouth,claphamsouth,51.452676506748,-0.1479696801021,"array([2.01990741, 7.03872832])"
128,claphamhighstreet,claphamhighstreet,51.465469529402,-0.13245010905033,"array([1.97171887, 7.0762466 ])"
129,wandsworthroad,wandsworthroad,51.470223218762,-0.13902328072857,"array([1.97964076, 7.11562642])"
130,claphamnorth,claphamnorth,51.464916230409,-0.12989566953588,"array([1.95877043, 7.05991015])"
131,hendoncentral,hendoncentral,51.583133074092,-0.2267197095034,"array([1.49654593, 7.27773558])"
132,collierswood,collierswood,51.418759208995,-0.17740072104762,"array([2.11742946, 7.00575517])"
133,southwimbledon,southwimbledon,51.41536073293,-0.19196016848772,"array([2.13710058, 6.99917096])"
134,coventgarden,coventgarden,51.512760249622,-0.1244924862088,"array([1.77822793, 7.12874444])"
135,holborn,holborn,51.517235749261,-0.11982609759457,"array([1.76085465, 7.1257517 ])"
136,crossharbour,crossharbour,51.495839980525,-0.014918409980624,"array([1.87510586, 6.79628292])"
137,mudchute,mudchute,51.491236186648,-0.014945543221677,"array([1.88946066, 6.77085854])"
138,crouchhill,crouchhill,51.571327111387,-0.11711885796196,"array([1.59220793, 7.17201055])"
139,harringaygreenlanes,harringaygreenlanes,51.57714590447,-0.098202962998489,"array([1.57259888, 7.14426643])"
140,croxley,croxley,51.647005333911,-0.44158934771671,"array([1.83399803, 7.68109042])"
141,watford,watford,51.657605146891,-0.41725555293253,"array([1.84549351, 7.69490534])"
142,customhouse,customhouse,51.509622053058,0.025786917726712,"array([1.72386718, 6.7691987 ])"
143,princeregent,princeregent,51.509434545079,0.033502981448267,"array([1.72165078, 6.7391767 ])"
144,cuttysarkformaritimegreenwich,cuttysarkformaritimegreenwich,51.481944468688,-0.01056746798363,"array([1.91480475, 6.72451775])"
145,greenwich,greenwich,51.477547665535,-0.014848686252722,"array([1.92610939, 6.70333817])"
146,gallionsreach,gallionsreach,51.509034130657,0.071789801687878,"array([1.72263089, 6.64245058])"
147,dagenhameast,dagenhameast,51.544187318113,0.16584784999223,"array([1.43158552, 6.86728139])"
148,elmpark,elmpark,51.549124559422,0.19726710182967,"array([1.40839426, 6.86021575])"
149,haggerston,haggerston,51.538684738939,-0.075580841462924,"array([1.67865623, 7.02624326])"
150,hackneycentral,hackneycentral,51.547257451286,-0.055575092639468,"array([1.64493893, 6.99576716])"
151,debden,debden,51.645491990883,0.083815925291538,"array([1.56566486, 6.63590027])"
152,theydonbois,theydonbois,51.672552069981,0.10290519530392,"array([1.56068757, 6.61563432])"
153,denmarkhill,denmarkhill,51.468200650033,-0.090973475173744,"array([1.95777223, 7.03658629])"
154,deptfordbridge,deptfordbridge,51.474476774061,-0.022038032405853,"array([1.93663249, 6.6834047 ])"
155,elversonroad,elversonroad,51.468372191483,-0.016801981736488,"array([1.94608252, 6.66542911])"
156,langdonpark,langdonpark,51.518883939693,-0.015199388573999,"array([1.74579294, 6.8828317 ])"
157,dollishill,dollishill,51.551850619529,-0.23878334100376,"array([1.73192966, 7.36164576])"
158,willesdengreen,willesdengreen,51.549373313232,-0.22239318421442,"array([1.72215976, 7.34319427])"
159,ealingbroadway,ealingbroadway,51.51486201146,-0.30199597251937,"array([2.0563076 , 7.39766288])"
160,ealingcommon,ealingcommon,51.510248690463,-0.28713701041592,"array([2.04239815, 7.42236129])"
161,gloucesterroad,gloucesterroad,51.494499579725,-0.18352915689619,"array([1.93349903, 7.23196765])"
162,highstreetkensington,highstreetkensington,51.500729468384,-0.19155165303998,"array([1.93005016, 7.2541401 ])"
163,eastacton,eastacton,51.516263444214,-0.2480978154307,"array([2.01809787, 7.32658188])"
164,whitecity,whitecity,51.512232464701,-0.22461752326457,"array([1.9781041 , 7.31627821])"
165,eastcote,eastcote,51.576551871493,-0.39680887105797,"array([1.91302788, 7.56785329])"
166,raynerslane,raynerslane,51.575396777398,-0.371046385824,"array([1.90169902, 7.54116523])"
167,ruislipmanor,ruislipmanor,51.573451624726,-0.41283492710738,"array([1.92438234, 7.59199603])"
168,eastfinchley,eastfinchley,51.587332564437,-0.16472945405368,"array([1.555159  , 7.35160957])"
169,highgate,highgate,51.57764663481,-0.14692043327249,"array([1.5773455, 7.3308034])"
170,eastham,eastham,51.539246158049,0.051530710126145,"array([1.5729394 , 6.88706798])"
171,eastputney,eastputney,51.458879808899,-0.21098384278422,"array([2.09339298, 7.21260475])"
172,putneybridge,putneybridge,51.467865362703,-0.20935102262327,"array([2.06818571, 7.21778067])"
173,edgware,edgware,51.614229655466,-0.27507922607818,"array([1.43592529, 7.29453005])"
174,edgwareroad(bakerlooline),edgwareroad(bakerlooline),51.520645381678,-0.17052514070378,"array([1.81900034, 7.2627171 ])"
175,marylebone,marylebone,51.522396687994,-0.16347815242029,"array([1.80489766, 7.24571787])"
176,kennington,kennington,51.488662470707,-0.10505621257104,"array([1.86083857, 7.05950821])"
177,hornchurch,hornchurch,51.554355082156,0.21894141805997,"array([1.38715485, 6.85366453])"
178,lewisham,lewisham,51.464880714235,-0.012418307529155,"array([1.95441458, 6.64952099])"
179,temple,temple,51.51104062071,-0.11371134239066,"array([1.81043261, 7.07882256])"
180,waterloo,waterloo,51.503146653078,-0.11324484659974,"array([1.82438037, 7.06463297])"
181,kingscrossstpancras,kingscrossstpancras,51.530312476892,-0.12385771561154,"array([1.70622382, 7.144727  ])"
182,southhampstead,southhampstead,51.541476868984,-0.1783567825076,"array([1.75727359, 7.23111072])"
183,warrenstreet,warrenstreet,51.524580005085,-0.13826391949985,"array([1.75668237, 7.18583458])"
184,eustonsquare,eustonsquare,51.528664346375,-0.13328205840994,"array([1.7294078, 7.1783625])"
185,hainault,hainault,51.602845314928,0.094122987217226,"array([1.49545634, 6.70310934])"
186,finchleycentral,finchleycentral,51.600903273752,-0.19320620063466,"array([1.53389079, 7.37162391])"
187,finchleyroad,finchleyroad,51.547096220268,-0.18003614128656,"array([1.77173897, 7.30219563])"
188,swisscottage,swisscottage,51.543034867714,-0.17561218648329,"array([1.7634177 , 7.28290605])"
189,finchleyroad&frognal,finchleyroad&frognal,51.550119520279,-0.18363678247277,"array([1.70945365, 7.27842485])"
190,hampsteadheath,hampsteadheath,51.555199944256,-0.16455176144825,"array([1.67743661, 7.25038495])"
191,manorhouse,manorhouse,51.570747151453,-0.095670549505162,"array([1.58201697, 7.1220641 ])"
192,sevensisters,sevensisters,51.583362168372,-0.0724523920649,"array([1.59475724, 7.09879246])"
193,foresthill,foresthill,51.439308318386,-0.053314119078799,"array([1.99887315, 6.85830972])"
194,sydenham,sydenham,51.427341258001,-0.055074289357489,"array([2.02106396, 6.84103925])"
195,fulhambroadway,fulhambroadway,51.480260927016,-0.19552976561085,"array([2.01154517, 7.22920628])"
196,westbrompton,westbrompton,51.487328938205,-0.19552441152812,"array([1.97935764, 7.23587143])"
197,beckton,beckton,51.514376621471,0.061539705886513,"array([1.72359386, 6.6247363 ])"
198,gantshill,gantshill,51.576552943422,0.066098526398209,"array([1.5405815 , 6.77088767])"
199,newburypark,newburypark,51.575638344309,0.090317586010402,"array([1.5208925 , 6.75666734])"
200,southkensington,southkensington,51.494071386411,-0.17390862058942,"array([1.90767351, 7.20042335])"
201,hampstead,hampstead,51.556542616677,-0.17800013773286,"array([1.57637305, 7.25634376])"
202,goldhawkroad,goldhawkroad,51.502076993967,-0.22738960127533,"array([1.66876818, 7.43605171])"
203,hammersmith(h&cline),hammersmith(h&cline),51.493483379174,-0.22462575515926,"array([1.6562362, 7.4498119])"
204,shepherdsbushmarket,shepherdsbushmarket,51.505880735504,-0.22738608723774,"array([1.68386799, 7.42003465])"
205,goodgestreet,goodgestreet,51.520613125487,-0.13479327927061,"array([1.76470165, 7.16885393])"
206,tottenhamcourtroad,tottenhamcourtroad,51.51621088565,-0.13109602942553,"array([1.77764393, 7.15275691])"
207,gospeloak,gospeloak,51.555405311264,-0.15128661069808,"array([1.64707036, 7.21852735])"
208,kentishtownwest,kentishtownwest,51.546547987029,-0.14674199079293,"array([1.64352202, 7.19437006])"
209,upperholloway,upperholloway,51.563623319983,-0.12909493917319,"array([1.61690708, 7.19668679])"
210,grangehill,grangehill,51.613480413753,0.092286969949084,"array([1.51132312, 6.69235012])"
211,greenford,greenford,51.541980112836,-0.34586432267848,"array([2.14179628, 7.34618084])"
212,perivale,perivale,51.536341860358,-0.32305600630537,"array([2.11474403, 7.34447217])"
213,piccadillycircus,piccadillycircus,51.509696764476,-0.13369718974012,"array([1.80813778, 7.15284948])"
214,westminster,westminster,51.501401606172,-0.12498767440679,"array([1.83141676, 7.11282267])"
215,gunnersbury,gunnersbury,51.491863444709,-0.27514973411264,"array([1.97916911, 7.3756946 ])"
216,southacton,southacton,51.499685861011,-0.27020080333496,"array([1.95106522, 7.36313905])"
217,homerton,homerton,51.546595450822,-0.038497927971748,"array([1.64829233, 6.95928328])"
218,hackneywick,hackneywick,51.543558409072,-0.025245084630728,"array([1.65609994, 6.92351123])"
219,stratford,stratford,51.541692579295,-0.0037372234417709,"array([1.66879828, 6.8875987 ])"
220,hoxton,hoxton,51.531391621283,-0.075571232880956,"array([1.69506987, 7.00647786])"
221,hammersmith(dist&piccline),hammersmith(dist&piccline),51.491819802914,-0.22284652701972,"array([1.99693723, 7.33310128])"
222,hangerlane,hangerlane,51.530072069094,-0.29298173181915,"array([2.08555663, 7.34320356])"
223,northacton,northacton,51.523432458806,-0.25971511616691,"array([2.05330943, 7.34324497])"
224,harlesden,harlesden,51.536258358843,-0.25748125850322,"array([1.88942417, 7.35667157])"
225,stonebridgepark,stonebridgepark,51.54398658738,-0.27538602336732,"array([1.88318608, 7.38232272])"
226,southtottenham,southtottenham,51.580402594532,-0.071841526783666,"array([1.55806719, 7.11234535])"
227,harrow&wealdstone,harrow&wealdstone,51.592594673236,-0.33423825163137,"array([1.82681025, 7.48521684])"
228,headstonelane,headstonelane,51.602499669538,-0.35689307782418,"array([1.80713233, 7.50821969])"
229,kenton,kenton,51.581496322037,-0.31520243664979,"array([1.8420107 , 7.46817617])"
230,harrow-on-the-hill,harrow-on-the-hill,51.579388159582,-0.33698708805734,"array([1.84039293, 7.50220968])"
231,northwickpark,northwickpark,51.5785087266,-0.31818496289702,"array([1.81846208, 7.45676324])"
232,westharrow,westharrow,51.578924280955,-0.35383226807134,"array([1.87120912, 7.52251005])"
233,hatchend,hatchend,51.609828548789,-0.36916434211502,"array([1.78939165, 7.52952694])"
234,hattoncross,hattoncross,51.466685355642,-0.42336616986103,"array([2.22222318, 7.54260779])"
235,heathrowterminal4,heathrowterminal4,51.45978048411,-0.44771519861354,"array([2.22774067, 7.55887572])"
236,hounslowwest,hounslowwest,51.473105762632,-0.38569323300198,"array([2.20351818, 7.52830641])"
237,heathrowterminals123,heathrowterminals123,51.47128945567,-0.45239283063262,"array([2.2410996 , 7.55143201])"
238,heathrowterminal5,heathrowterminal5,51.470025485584,-0.49063310869077,"array([2.25828218, 7.55847189])"
239,southquay,southquay,51.500863608239,-0.018446287979256,"array([1.85907617, 6.82319634])"
240,highbarnet,highbarnet,51.651688276705,-0.19415092780429,"array([1.46304834, 7.42571264])"
241,totteridge&whetstone,totteridge&whetstone,51.63024674119,-0.17933981753571,"array([1.47714574, 7.41420043])"
242,hillingdon,hillingdon,51.55377757066,-0.44988357245777,"array([1.95494484, 7.65294536])"
243,ickenham,ickenham,51.560825107127,-0.44156508942605,"array([1.9455852 , 7.63435812])"
244,uxbridge,uxbridge,51.546454564696,-0.47708714109832,"array([1.96328643, 7.66922556])"
245,russellsquare,russellsquare,51.523013052867,-0.12457578611157,"array([1.73322132, 7.13619886])"
246,hollandpark,hollandpark,51.507146508744,-0.20654337129402,"array([1.91870249, 7.28608904])"
247,upminsterbridge,upminsterbridge,51.557718771685,0.23455631120919,"array([1.36772505, 6.84734211])"
248,hounslowcentral,hounslowcentral,51.470925810282,-0.36594373417825,"array([2.18384586, 7.51351896])"
249,hounsloweast,hounsloweast,51.473707937461,-0.35526092596841,"array([2.16305758, 7.49787849])"
250,osterley,osterley,51.481216852781,-0.3520816978192,"array([2.14105303, 7.48119389])"
251,shoreditchhighstreet,shoreditchhighstreet,51.523466827911,-0.077073012851082,"array([1.71626844, 6.98928633])"
252,hydeparkcorner,hydeparkcorner,51.502584030904,-0.15245970877887,"array([1.85654823, 7.17554235])"
253,ruislip,ruislip,51.57216197222,-0.42122049909957,"array([1.93542331, 7.61409385])"
254,imperialwharf,imperialwharf,51.474938948929,-0.18282310826897,"array([1.98307138, 7.19494955])"
255,claphamjunction,claphamjunction,51.464366804651,-0.17030060907001,"array([1.98338102, 7.15490048])"
256,islandgardens,islandgardens,51.487950088882,-0.010478902499309,"array([1.90260657, 6.74705756])"
257,oval,oval,51.481412613811,-0.11330667730935,"array([1.89431085, 7.06505793])"
258,kensalgreen,kensalgreen,51.530524241234,-0.22469897011847,"array([1.86934608, 7.31013541])"
259,queenspark,queenspark,51.534312675201,-0.20478373421795,"array([1.84168782, 7.29120886])"
260,kensalrise,kensalrise,51.53421509119,-0.22080656353585,"array([1.8569426 , 7.33581084])"
261,kensington(olympia),kensington(olympia),51.497879724483,-0.21036483866639,"array([1.95880535, 7.27073166])"
262,kentishtown,kentishtown,51.550009538423,-0.14045684366827,"array([1.65127218, 7.25727347])"
263,southkenton,southkenton,51.571044486824,-0.30812855062663,"array([1.85499988, 7.4492039 ])"
264,kewgardens,kewgardens,51.476789170755,-0.28536661446493,"array([1.97786235, 7.39264627])"
265,kilburn,kilburn,51.546944459981,-0.20461829997264,"array([1.72890434, 7.32249933])"
266,kilburnhighroad,kilburnhighroad,51.537267764059,-0.19109868962017,"array([1.79879947, 7.26053391])"
267,kilburnpark,kilburnpark,51.535135560206,-0.19395164168612,"array([1.84857643, 7.30822937])"
268,maidavale,maidavale,51.529995078969,-0.18541823310956,"array([1.83802548, 7.32022685])"
269,kinggeorgev,kinggeorgev,51.502008599189,0.062220618931645,"array([1.78315207, 6.74318907])"
270,woolwicharsenal,woolwicharsenal,51.489907107526,0.069208307647642,"array([1.79072168, 6.72624242])"
271,kingsbury,kingsbury,51.584876550714,-0.27858717715014,"array([1.77102983, 7.39101704])"
272,wembleypark,wembleypark,51.563322491915,-0.27922812839087,"array([1.77877673, 7.36258157])"
273,knightsbridge,knightsbridge,51.501354916808,-0.16065008131194,"array([1.88280762, 7.18929679])"
274,ladbrokegrove,ladbrokegrove,51.517210698742,-0.21018376269161,"array([1.74635672, 7.3588014 ])"
275,latimerroad,latimerroad,51.513958124663,-0.21744525733064,"array([1.72241036, 7.38223252])"
276,westbournepark,westbournepark,51.520988865484,-0.20086810419124,"array([1.77173165, 7.33673345])"
277,lambethnorth,lambethnorth,51.499129959063,-0.11175385704735,"array([1.84231887, 7.05291231])"
278,lancastergate,lancastergate,51.511890964101,-0.17541552045722,"array([1.86055318, 7.22953014])"
279,marblearch,marblearch,51.513965510738,-0.15855680746603,"array([1.83613905, 7.21500234])"
280,woodlane,woodlane,51.509658221839,-0.2244582012666,"array([1.70173513, 7.40202167])"
281,leicestersquare,leicestersquare,51.511291196842,-0.12822773962177,"array([1.79400625, 7.1393462 ])"
282,leyton,leyton,51.55813227051,-0.0064509088011814,"array([1.63954838, 6.84712478])"
283,leytonstone,leytonstone,51.568522287449,0.009154878018083,"array([1.61305068, 6.80977303])"
284,leytonmidlandroad,leytonmidlandroad,51.569364239801,-0.0080519210997184,"array([1.52833963, 7.01878445])"
285,leytonstonehighroad,leytonstonehighroad,51.563807342647,0.0082688934065806,"array([1.52442663, 6.98842615])"
286,snaresbrook,snaresbrook,51.580891270601,0.021478357761873,"array([1.601772  , 6.77492028])"
287,wanstead,wanstead,51.574902145755,0.028774900468403,"array([1.5866309, 6.7975996])"
288,wansteadpark,wansteadpark,51.551778074703,0.026404363778733,"array([1.52512194, 6.95868255])"
289,limehouse,limehouse,51.512312167848,-0.039365669438682,"array([1.78458865, 6.94270752])"
290,westferry,westferry,51.509638150617,-0.026308729670621,"array([1.79004226, 6.91142168])"
291,londoncityairport,londoncityairport,51.50368965775,0.047887121033287,"array([1.77395566, 6.76273362])"
292,warwickavenue,warwickavenue,51.523104457076,-0.18293888140664,"array([1.8269986 , 7.30605713])"
293,turnpikelane,turnpikelane,51.590358146027,-0.1027906082273,"array([1.54718505, 7.12902724])"
294,millhilleast,millhilleast,51.608316669912,-0.20988127429344,"array([1.53676101, 7.38885226])"
295,towerhill,towerhill,51.510394282129,-0.076686790760475,"array([1.76810405, 6.99725367])"
296,moorpark,moorpark,51.629930718133,-0.4328985822977,"array([1.81991555, 7.66684771])"
297,northwood,northwood,51.611213662308,-0.42382334746562,"array([1.82391377, 7.63703106])"
298,neasden,neasden,51.554627747213,-0.25010062378951,"array([1.75594952, 7.36943361])"
299,westacton,westacton,51.517770184208,-0.28064276561988,"array([2.05908197, 7.37046215])"
300,northealing,northealing,51.517622323819,-0.28897914280262,"array([2.03169381, 7.45117453])"
301,southealing,southealing,51.501644057917,-0.30702584019952,"array([2.06675606, 7.4244395 ])"
302,northharrow,northharrow,51.584631342978,-0.3626185623764,"array([1.83649514, 7.53892983])"
303,northolt,northolt,51.548212945697,-0.36842617615208,"array([2.16645183, 7.34787413])"
304,northwembley,northwembley,51.562396328364,-0.30393379535805,"array([1.8661108 , 7.42843709])"
305,wembleycentral,wembleycentral,51.551864816194,-0.29637790641578,"array([1.87529405, 7.40611257])"
306,prestonroad,prestonroad,51.572103763883,-0.29495758553154,"array([1.7988858 , 7.41033436])"
307,northwoodhills,northwoodhills,51.600802695129,-0.40929692189409,"array([1.82814504, 7.60615309])"
308,pinner,pinner,51.592361724428,-0.38120935690424,"array([1.83252363, 7.57341626])"
309,westcroydon,westcroydon,51.378552186111,-0.1020199266263,"array([2.09417094, 6.79405278])"
310,queensway,queensway,51.510449255439,-0.18740549543317,"array([1.88176868, 7.24650412])"
311,oakwood,oakwood,51.64763797617,-0.1318390886991,"array([1.41669181, 7.13723503])"
312,cockfosters,cockfosters,51.652024496788,-0.14990225857042,"array([1.39821476, 7.13788216])"
313,edgwareroad(districtline),edgwareroad(districtline),51.51999806318,-0.1676538436008,"array([1.83746746, 7.2723867 ])"
314,royaloak,royaloak,51.518294375269,-0.18880926348942,"array([1.79778558, 7.31050609])"
315,paddington(h&cline),paddington(h&cline),51.515393806532,-0.17572234283505,"array([1.79595773, 7.29281364])"
316,parsonsgreen,parsonsgreen,51.474960176772,-0.20111009589714,"array([2.04106011, 7.22331397])"
317,peckhamrye,peckhamrye,51.469511372801,-0.069969158361951,"array([1.94021019, 7.00034618])"
318,pengewest,pengewest,51.418062935027,-0.060631385884983,"array([2.04351292, 6.82890154])"
319,pimlico,pimlico,51.489552877924,-0.1330938573102,"array([1.88965434, 7.12459544])"
320,victoria,victoria,51.496423969876,-0.14390630306143,"array([1.8660145 , 7.14848835])"
321,plaistow,plaistow,51.531288332324,0.017795056275962,"array([1.64730245, 6.86500764])"
322,uptonpark,uptonpark,51.536628195871,0.034556255633226,"array([1.60879926, 6.87503491])"
323,pontoondock,pontoondock,51.502216211037,0.033340112607835,"array([1.76311374, 6.78485881])"
324,westindiaquay,westindiaquay,51.506762659668,-0.020568040587805,"array([1.8022235 , 6.89239648])"
325,royalalbert,royalalbert,51.508493863562,0.045191552169371,"array([1.72090107, 6.71170161])"
326,puddingmilllane,puddingmilllane,51.53432785535,-0.012754096692901,"array([1.68654626, 6.89042125])"
327,queensroadpeckham,queensroadpeckham,51.474284715779,-0.057340582526957,"array([1.91890012, 6.96615137])"
328,ravenscourtpark,ravenscourtpark,51.494068008984,-0.23595483065011,"array([2.01002624, 7.34547745])"
329,southharrow,southharrow,51.564680211138,-0.35187954635816,"array([1.92936998, 7.5349365 ])"
330,redbridge,redbridge,51.576366911264,0.045408472505876,"array([1.56237921, 6.7843349 ])"
331,richmond,richmond,51.463232922347,-0.30172474133933,"array([1.97706802, 7.40733443])"
332,woodford,woodford,51.607201839663,0.034070640659794,"array([1.57515997, 6.71167281])"
333,rotherhithe,rotherhithe,51.501594510808,-0.052951891484305,"array([1.82748398, 6.94049806])"
334,ruislipgardens,ruislipgardens,51.559960227907,-0.40927968814014,"array([2.21017128, 7.35118851])"
335,southruislip,southruislip,51.55689035096,-0.39910148824501,"array([2.18937542, 7.34960927])"
336,tottenhamhale,tottenhamhale,51.587997785049,-0.060173390466137,"array([1.57121544, 7.08707203])"
337,wapping,wapping,51.504340322706,-0.055846408737992,"array([1.8048735 , 6.95867643])"
338,shepherdsbush,shepherdsbush,51.50453217729,-0.21850475368199,"array([1.93760075, 7.30450006])"
339,sloanesquare,sloanesquare,51.492359782932,-0.1564744555002,"array([1.89062263, 7.17205294])"
340,southwoodford,southwoodford,51.591552612383,0.027957511681624,"array([1.58885345, 6.74240689])"
341,southfields,southfields,51.444883338258,-0.20659499856664,"array([2.11651257, 7.2079236 ])"
342,sudburyhill,sudburyhill,51.557339600086,-0.33637769283987,"array([1.9553906 , 7.52635853])"
343,southwark,southwark,51.503853632869,-0.10578053394541,"array([1.82586445, 7.03424819])"
344,morden,morden,51.402185984981,-0.19483760810466,"array([2.15437294, 6.99335402])"
345,stamfordbrook,stamfordbrook,51.494449997347,-0.24523190696758,"array([2.01967509, 7.3594582 ])"
346,stanmore,stanmore,51.6196734807,-0.30308485086488,"array([1.74357756, 7.45260862])"
347,starlane,starlane,51.520604250081,0.0042054135552674,"array([1.71104562, 6.84202985])"
348,stepneygreen,stepneygreen,51.521995838874,-0.047368111957746,"array([1.71998909, 6.9483287 ])"
349,stjamesspark,stjamesspark,51.499609810342,-0.13386435110426,"array([1.85155687, 7.12887536])"
350,stjohnswood,stjohnswood,51.534854431713,-0.17405042505482,"array([1.76803936, 7.26225075])"
351,vauxhall,vauxhall,51.485735816391,-0.12381555294752,"array([1.90925721, 7.09993685])"
352,stratfordhighstreet,stratfordhighstreet,51.538148951165,-0.001065939537146,"array([1.66690668, 6.8663551 ])"
353,stratfordinternational,stratfordinternational,51.54480853536,-0.0087640154463654,"array([1.65003222, 6.892041  ])"
354,sudburytown,sudburytown,51.551397480891,-0.31632906529511,"array([1.97930271, 7.5138757 ])"
355,newcross,newcross,51.476429418617,-0.032264414494673,"array([1.90084253, 6.91849006])"
356,crystalpalace,crystalpalace,51.418170359941,-0.072592854062748,"array([2.01871354, 6.82400068])"
357,epping,epping,51.69368615157,0.11384001852178,"array([1.55593812, 6.59797274])"
358,tootingbroadway,tootingbroadway,51.42704916499,-0.16867014599257,"array([2.09578631, 7.01303364])"
359,woodsidepark,woodsidepark,51.617868422141,-0.185411063095,"array([1.49351746, 7.40093995])"
360,towergateway,towergateway,51.510392650922,-0.074395469530797,"array([1.77477689, 6.96160156])"
361,woodgreen,woodgreen,51.597453741251,-0.10951215426353,"array([1.51576567, 7.13236959])"
362,upminster,upminster,51.558763325208,0.2514152239117,"array([1.35096039, 6.84190764])"
363,woodgrangepark,woodgrangepark,51.549052529247,0.044586916011772,"array([1.53030039, 6.92941699])"
364,watfordjunction,watfordjunction,51.663883061474,-0.39615750118974,"array([1.73306198, 7.59725299])"
365,westfinchley,westfinchley,51.609262750488,-0.1889026706526,"array([1.51177727, 7.38651526])"
366,westruislip,westruislip,51.569587924657,-0.43784571956141,"array([2.22841942, 7.35259574])"
367,wimbledon,wimbledon,51.421107869794,-0.20664845638008,"array([2.1548618 , 7.20036903])"
368,wimbledonpark,wimbledonpark,51.434580976538,-0.19917189150183,"array([2.13723148, 7.20376226])"
